{"_id":"50de7f5d6741830c003f9a410206e48c","width":"30","height":"30","latitude":"39.731839","longitude":"116.169476","name":"北校区食堂","type":"食堂"}
{"_id":"a40fc074674185c5003d96df71909a4b","longitude":"116.180345","name":"工训楼","type":"教学楼","width":"30","height":"30","latitude":"39.732411"}
{"_id":"59af7b526741890e003df09861b8fd66","type":"食堂","width":"30","height":"30","latitude":"39.738216","longitude":"116.175316","name":"北校区清真食堂"}
{"_id":"50de7f5d6741892a0040230f1dff669c","height":"30","latitude":"39.741488","longitude":"116.180349","name":"东校区食堂","type":"食堂","width":"30"}
{"_id":"b01b8517674193720044f2e074f5d0e1","width":"30","height":"30","latitude":"39.733439","longitude":"116.174378","name":"南校区食堂","type":"食堂"}
{"_id":"59af7b526741939e003f526f78bd7610","type":"教学楼","width":"30","height":"30","latitude":"39.739524","longitude":"116.177757","name":"北校区综合教学楼"}
{"_id":"f5835fa6674193bf003f57215085025b","longitude":"116.180394","name":"东校区文萃楼F","type":"教学楼","width":"30","height":"30","latitude":"39.738409"}
{"_id":"59af7b5267419519003f7209291fa706","type":"教学楼","width":"30","height":"30","latitude":"39.740219","longitude":"116.180502","name":"东校区文萃楼L"}
{"_id":"cc3a4179674195300041119029101a1b","width":"30","height":"30","latitude":"39.739324","longitude":"116.180295","name":"东校区文萃楼I","type":"教学楼"}
{"_id":"ce6b953c6741954500459ec56a26c222","height":"30","latitude":"39.738019","longitude":"116.180394","name":"东校区文萃楼E","type":"教学楼","width":"30"}
{"_id":"ce6b953c674195550045a035756f8b51","height":"30","latitude":"39.739213","longitude":"116.180654","name":"东校区文萃楼A","type":"教学楼","width":"30"}
{"_id":"0ecc3a0a67419568003e7f395e4fdfa1","type":"教学楼","width":"30","height":"30","latitude":"39.738506","longitude":"116.180259","name":"东校区文萃楼G"}
{"_id":"0ecc3a0a674195ac003e83327a596439","height":"30","latitude":"39.740136","longitude":"116.180268","name":"东校区文萃楼K","type":"教学楼","width":"30"}
{"_id":"f5835fa6674195bd003f8e57698db19f","longitude":"116.177423","name":"南校区理教楼","type":"教学楼","width":"30","height":"30","latitude":"39.736597"}
{"_id":"59af7b52674195d0003f7f8240a47e72","latitude":"39.735544","longitude":"116.178217","name":"南校区理学楼","type":"教学楼","width":"30","height":"30"}
{"_id":"0ecc3a0a674195e9003e87732e73f9e3","type":"教学楼","width":"30","height":"30","latitude":"39.732398","longitude":"116.1774","name":"工业生态楼"}
{"_id":"cc3a417967419617004127774a2bc5d0","longitude":"116.176753","name":"化学实验中心","type":"教学楼","width":"30","height":"30","latitude":"39.734374"}
{"_id":"0ecc3a0a67419648003e8e8f3030fe78","height":"30","latitude":"39.734455","longitude":"116.176756","name":"生物实验教学中心","type":"教学楼","width":"30"}
{"_id":"a40fc07467419663003f70614308beea","name":"静园A","type":"宿舍","width":"30","height":"30","latitude":"39.737961","longitude":"116.174346"}
{"_id":"59af7b5267419674003f8e9355a76208","latitude":"39.73837","longitude":"116.174406","name":"静园B","type":"宿舍","width":"30","height":"30"}
{"_id":"ce6b953c674196840045ba74799161ce","width":"30","height":"30","latitude":"39.739653","longitude":"116.174646","name":"静园C","type":"宿舍"}
{"_id":"f5835fa667419693003fa6344a8ce0df","width":"30","height":"30","latitude":"39.739852","longitude":"116.174705","name":"静园D","type":"宿舍"}
{"_id":"ce6b953c674196a50045c17e5a85563c","latitude":"39.743801","longitude":"116.174554","name":"丹枫园","type":"宿舍","width":"30","height":"30"}
{"_id":"cc3a4179674196b3004138af22966bfb","longitude":"116.180477","name":"甘棠A","type":"宿舍","width":"30","height":"30","latitude":"39.740711"}
{"_id":"f5835fa6674196c0003faaa61da5e46b","type":"宿舍","width":"30","height":"30","latitude":"39.740684","longitude":"116.180126","name":"甘棠B"}
{"_id":"a40fc074674196cd003f7e287d6299a6","latitude":"39.742161","longitude":"116.18007","name":"甘棠C","type":"宿舍","width":"30","height":"30"}
{"_id":"0ecc3a0a674196d9003e9e4e699bac8d","name":"甘棠D","type":"宿舍","width":"30","height":"30","latitude":"39.742292","longitude":"116.180786"}
{"_id":"a40fc074674196e9003f82426848826f","longitude":"116.180477","name":"疏桐A、B","type":"宿舍","width":"30","height":"30","latitude":"39.740711"}
{"_id":"f5835fa66741970e003fb07f5371eaff","type":"宿舍","width":"30","height":"30","latitude":"39.73611","longitude":"116.174142","name":"疏桐C"}
{"_id":"ce6b953c6741971e0045c9ee0b180e84","height":"30","latitude":"39.736454","longitude":"116.174107","name":"疏桐D","type":"宿舍","width":"30"}
{"_id":"50de7f5d6741972b0041d5b449936b92","name":"疏桐E","type":"宿舍","width":"30","height":"30","latitude":"39.73679","longitude":"116.1741"}
{"_id":"ce6b953c674197390045cdff296d3bd0","type":"图书馆","width":"30","height":"30","latitude":"39.73806","longitude":"116.177264","name":"徐特立图书馆"}
{"_id":"50de7f5d674197490041d84653637ec9","width":"30","height":"30","latitude":"39.73286","longitude":"116.175354","name":"博雅园","type":"宿舍"}
